,City,Cloudiness,Country,Date,Humidity,Lat,Lng,Max Temp,Wind Speed
0,ayan,23,TR,1559254047,96,40.67,33.6,55.34,3.76
1,staryy nadym,100,RU,1559254047,95,65.61,72.68,34.28,17.9
2,jamestown,1,AU,1559254048,92,-33.21,138.6,43.64,1.5
3,lebu,60,ET,1559254048,70,8.96,38.73,61.82,1.9
4,georgetown,20,GY,1559254048,78,6.8,-58.16,84.2,16.11
5,ninh binh,100,VN,1559254049,95,20.25,105.97,76.04,2.55
6,avarua,98,CK,1559254049,69,-21.21,-159.78,80.6,17.22
7,isangel,20,VU,1559254049,83,-19.55,169.27,75.2,3.36
8,ballina,100,IE,1559254049,95,54.11,-9.15,57.0,3.0
9,qaqortoq,0,GL,1559254049,15,60.72,-46.03,59.0,13.87
10,nantucket,90,US,1559254050,87,41.28,-70.1,57.2,11.41
11,ushuaia,40,AR,1559254024,69,-54.81,-68.31,39.2,5.82
12,saldanha,0,PT,1559254050,38,41.42,-6.55,70.82,3.94
13,zhangjiakou,0,CN,1559254050,33,40.77,114.88,44.36,9.04
14,motygino,98,RU,1559254051,86,58.18,94.69,52.46,5.46
15,busselton,83,AU,1559254051,49,-33.64,115.35,62.01,14.67
16,beyneu,23,KZ,1559254051,36,45.32,55.19,79.64,8.79
17,new norfolk,75,AU,1559254051,76,-42.78,147.06,51.8,4.7
18,tiksi,90,RU,1559254052,95,71.64,128.87,32.12,6.91
19,rikitea,73,PF,1559254052,81,-23.12,-134.97,77.3,14.7
20,bonavista,0,CA,1559254052,88,48.65,-53.11,37.99,4.0
21,saint george,40,GR,1559254052,52,39.45,22.34,73.0,5.32
22,bouna,44,CI,1559254053,72,9.27,-3.0,82.16,9.53
23,dikson,79,RU,1559254053,89,73.51,80.55,30.5,21.79
24,atuona,7,PF,1559254053,76,-9.8,-139.03,83.24,17.05
25,punta cardon,100,VE,1559254053,77,11.61,-70.22,85.04,9.13
26,hobart,75,AU,1559253787,76,-42.88,147.33,51.8,4.7
27,gat,0,SN,1559254054,83,14.69,-16.54,71.6,18.34
28,mar del plata,59,AR,1559253814,55,-46.43,-67.52,40.58,8.37
29,arraial do cabo,0,BR,1559254054,78,-22.97,-42.02,77.0,12.75
30,kununurra,0,AU,1559254054,34,-15.77,128.74,66.2,11.41
31,constitucion,5,MX,1559254054,7,23.99,-104.67,87.01,11.41
32,kloulklubed,90,PW,1559254055,94,7.04,134.26,78.8,5.82
33,mehamn,75,NO,1559254055,80,71.03,27.85,41.0,28.86
34,codrington,0,AU,1559254055,80,-28.95,153.24,41.0,5.82
35,hermanus,52,ZA,1559254055,91,-34.42,19.24,57.0,1.01
36,elizabeth city,1,US,1559254055,34,36.3,-76.22,98.6,12.08
37,vaini,93,IN,1559254056,84,15.34,74.49,80.36,3.6
38,atambua,48,ID,1559254056,73,-9.11,124.89,81.44,18.86
39,butaritari,100,KI,1559254056,81,3.07,172.79,82.7,16.24
40,port macquarie,0,AU,1559254056,69,-31.43,152.91,42.01,6.93
41,nanortalik,0,GL,1559254056,64,60.14,-45.24,40.58,4.47
42,bluff,3,AU,1559254057,35,-23.58,149.07,52.28,17.92
43,borisoglebskiy,0,RU,1559254057,93,57.26,39.15,55.4,2.24
44,takoradi,100,GH,1559254057,94,4.89,-1.75,75.5,4.21
45,saint-philippe,75,CA,1559254058,49,45.36,-73.48,73.99,12.75
46,carnarvon,53,ZA,1559254058,27,-30.97,22.13,59.48,7.54
47,baghdad,0,IQ,1559254058,22,33.3,44.38,87.8,9.17
48,porto torres,0,IT,1559254058,87,40.84,8.4,57.2,2.24
49,bredasdorp,82,ZA,1559254061,87,-34.53,20.04,50.0,2.24
50,dhidhdhoo,59,MV,1559254061,79,6.88,73.1,84.14,11.79
51,lavrentiya,99,RU,1559254061,80,65.58,-170.99,35.9,8.84
52,banda aceh,96,ID,1559254061,75,5.56,95.32,84.32,7.96
53,altay,100,CN,1559254062,45,47.83,88.13,47.42,3.8
54,east london,100,ZA,1559254062,38,-33.02,27.91,63.26,4.41
55,diffa,100,NE,1559254062,47,13.32,12.61,88.46,4.65
56,puerto ayora,20,EC,1559254062,61,-0.74,-90.35,82.4,21.92
57,shimoda,75,JP,1559254062,93,34.7,138.93,68.0,3.36
58,paramonga,83,PE,1559254063,82,-10.68,-77.82,64.7,11.12
59,albany,75,US,1559253816,72,42.65,-73.75,73.0,6.93
60,zhigansk,0,RU,1559254063,75,66.77,123.37,38.6,14.54
61,nador,0,MA,1559254063,72,35.17,-2.93,68.0,10.29
62,ekhabi,0,RU,1559254064,90,53.51,142.97,39.5,10.0
63,turukhansk,96,RU,1559254064,88,65.8,87.96,33.92,4.92
64,verkhoyansk,1,RU,1559254064,68,67.55,133.39,42.2,11.39
65,dasoguz,0,TM,1559254064,72,41.84,59.97,69.8,4.7
66,dumas,1,IN,1559253810,80,21.09,72.71,84.5,14.34
67,ancud,75,CL,1559254065,93,-41.87,-73.83,51.8,14.99
68,tilichiki,49,RU,1559254065,48,60.47,166.1,53.9,8.72
69,hithadhoo,100,MV,1559254065,77,-0.6,73.08,82.7,14.63
70,kapaa,40,US,1559253903,69,22.08,-159.32,82.4,11.41
71,kodiak,40,US,1559254065,27,39.95,-94.76,75.2,12.75
72,mabaruma,81,GY,1559254065,59,8.2,-59.78,85.76,7.25
73,dubbo,0,AU,1559254066,100,-32.25,148.6,37.4,8.05
74,walvis bay,0,NA,1559254066,87,-22.95,14.51,57.99,4.7
75,boyolangu,58,ID,1559254066,94,-8.09,111.9,69.92,6.15
76,mujiayingzi,0,CN,1559254066,55,42.12,118.78,45.98,8.37
77,tasiilaq,17,GL,1559254067,71,65.61,-37.64,32.0,18.34
78,lesnoy,100,RU,1559254067,96,59.78,52.13,60.38,6.58
79,coihaique,75,CL,1559254067,87,-45.58,-72.07,46.4,5.82
80,tabou,100,CI,1559253890,96,4.42,-7.36,74.6,3.65
81,bethel,40,US,1559254068,47,60.79,-161.76,59.0,10.29
82,klyuchi,0,RU,1559254068,67,52.25,79.17,50.66,6.29
83,barrow,100,AR,1559254068,62,-38.31,-60.23,47.78,4.7
84,hilo,90,US,1559254069,61,19.71,-155.08,80.6,5.82
85,itacoatiara,93,BR,1559254069,92,-3.14,-58.44,81.08,2.66
86,rio gallegos,0,AR,1559254069,86,-51.62,-69.22,33.8,3.36
87,chokurdakh,100,RU,1559254069,84,70.62,147.9,33.56,14.03
88,los arcos,1,ES,1559254070,63,42.57,-2.19,64.4,1.12
89,soyo,48,AO,1559254070,80,-6.13,12.37,78.02,10.45
90,twentynine palms,75,US,1559254070,13,34.14,-116.05,98.6,11.41
91,miles city,1,US,1559254070,26,46.41,-105.84,80.01,8.05
92,victoria,75,BN,1559253946,94,5.28,115.24,80.6,8.63
93,raudeberg,40,NO,1559254071,75,61.99,5.14,46.4,19.46
94,karasjok,75,NO,1559254071,68,69.47,25.52,46.4,28.86
95,nhulunbuy,90,AU,1559254071,69,-12.18,136.78,77.0,13.87
96,maues,69,BR,1559253933,93,-3.38,-57.72,81.44,2.28
97,berlevag,40,NO,1559254072,80,70.86,29.09,41.0,27.51
98,coahuayana,30,MX,1559254072,23,18.62,-100.35,104.3,3.11
99,khatanga,100,RU,1559254074,89,71.98,102.47,42.02,16.71
100,cape town,0,ZA,1559253914,93,-33.93,18.42,57.0,3.36
101,merauke,79,ID,1559254075,81,-8.49,140.4,81.62,22.64
102,kedrovyy,40,RU,1559254075,59,56.17,91.82,60.8,15.66
103,upernavik,0,GL,1559254075,83,72.79,-56.15,32.48,4.41
104,saskylakh,86,RU,1559254075,95,71.97,114.09,31.76,13.47
105,atar,30,MR,1559254075,10,20.52,-13.05,97.1,7.38
106,churapcha,100,RU,1559254076,66,62.0,132.43,49.76,7.61
107,puerto ayacucho,40,CO,1559254076,74,5.66,-67.63,86.0,4.59
108,castro,75,CL,1559254076,93,-42.48,-73.76,51.8,14.99
109,ilulissat,5,GL,1559254077,70,69.22,-51.1,44.6,5.82
110,ibotirama,0,BR,1559254077,48,-12.18,-43.22,78.2,2.19
111,mogadishu,38,SO,1559254077,81,2.04,45.34,79.28,12.57
112,lebowakgomo,0,ZA,1559254077,42,-24.3,29.54,50.0,4.7
113,nikolskoye,0,RU,1559254077,45,59.7,30.79,48.2,6.71
114,tianpeng,53,CN,1559254078,80,28.88,112.34,67.22,1.72
115,punta arenas,0,CL,1559254078,80,-53.16,-70.91,33.8,4.7
116,norman wells,75,CA,1559254078,71,65.28,-126.83,50.0,5.82
117,kahului,40,US,1559254066,40,20.89,-156.47,87.8,19.46
118,san isidro,100,PH,1559254080,87,16.74,121.63,75.32,1.99
119,knysna,50,ZA,1559254080,93,-34.04,23.05,55.4,3.36
120,paamiut,81,GL,1559254081,80,61.99,-49.67,38.6,6.49
121,calvinia,100,ZA,1559254081,38,-31.47,19.78,63.62,6.78
122,terrace,75,CA,1559254081,36,54.52,-128.61,78.8,2.24
123,vostok,99,RU,1559254081,84,46.45,135.83,51.38,6.4
124,ossora,91,RU,1559254082,58,59.24,163.07,50.84,5.21
125,saint-francois,0,FR,1559254082,93,46.42,3.91,53.6,2.48
126,marsabit,17,KE,1559254082,52,2.34,37.99,84.68,18.32
127,chapais,75,CA,1559254082,75,49.78,-74.86,42.8,13.87
128,saint-pierre,20,FR,1559254083,93,48.95,4.24,57.2,3.36
129,axim,100,GH,1559254083,85,4.87,-2.24,78.38,7.67
130,wellsford,100,NZ,1559254083,92,-36.3,174.52,55.99,18.59
131,jidong,36,CN,1559254084,74,45.25,131.14,49.58,11.23
132,alice springs,0,AU,1559253981,69,-23.7,133.88,37.4,6.93
133,katsuura,75,JP,1559254084,77,33.93,134.5,71.01,3.36
134,cap malheureux,40,MU,1559254084,77,-19.98,57.61,68.0,6.93
135,souillac,0,FR,1559254084,72,45.6,-0.6,63.0,2.24
136,berezhany,90,UA,1559254085,100,49.44,24.94,57.2,2.24
137,inirida,100,CO,1559254085,98,3.87,-67.92,73.52,3.6
138,manokwari,77,ID,1559254085,76,-0.87,134.08,74.24,3.96
139,kyzyl-suu,97,KG,1559254085,51,42.34,78.0,63.44,8.79
140,port lincoln,100,AU,1559254086,72,-34.72,135.86,56.42,8.01
141,alta floresta,20,BR,1559254086,58,-9.87,-56.08,87.8,2.24
142,ratnagiri,61,IN,1559254086,79,16.98,73.3,84.32,9.64
143,tura,100,IN,1559254086,77,25.52,90.21,78.74,9.15
144,xingcheng,0,CN,1559254087,40,40.62,120.71,58.04,7.07
145,yulara,0,AU,1559254087,60,-25.24,130.99,39.2,8.05
146,yar-sale,97,RU,1559254087,93,66.83,70.83,33.2,16.87
147,cabo san lucas,20,MX,1559254016,60,22.89,-109.91,86.0,12.75
148,novaya igirma,72,RU,1559254087,87,57.14,103.93,49.04,2.91
149,bambanglipuro,65,ID,1559254090,80,-7.95,110.28,80.18,18.05
150,torbay,40,CA,1559254090,70,47.66,-52.73,43.0,11.41
151,westport,100,IE,1559254090,93,53.8,-9.52,57.0,15.93
152,lahaina,40,US,1559254090,48,20.87,-156.68,87.8,14.99
153,lujiang,16,CN,1559254091,100,31.26,117.28,64.4,2.24
154,huarmey,100,PE,1559254091,94,-10.07,-78.15,62.36,15.03
155,edgewater,40,US,1559254091,55,28.99,-80.9,98.01,17.22
156,ostersund,99,SE,1559254091,87,63.18,14.64,36.0,18.34
157,mataura,88,NZ,1559254092,98,-46.19,168.86,41.0,4.14
158,hit,0,IQ,1559254092,10,33.64,42.83,91.16,5.14
159,sorland,0,NO,1559254092,75,67.67,12.69,44.18,7.58
160,hami,0,CN,1559254092,22,42.84,93.51,67.94,9.51
161,dauphin,1,CA,1559254092,28,51.15,-100.04,80.6,11.41
162,port alfred,88,ZA,1559253942,74,-33.59,26.89,57.86,3.53
163,hoima,90,UG,1559254093,74,1.43,31.35,75.5,5.17
164,yellowknife,75,CA,1559254093,65,62.45,-114.38,41.0,2.24
165,los llanos de aridane,20,ES,1559253832,72,28.66,-17.92,68.0,12.75
166,ellisras,0,ZA,1559254093,70,-23.67,27.74,52.28,2.28
167,hastings,100,NZ,1559253905,90,-39.64,176.84,53.9,4.59
168,upata,100,VE,1559254094,49,8.02,-62.41,89.36,5.5
169,ashoknagar,1,IN,1559254094,16,24.58,77.73,95.3,7.54
170,bajil,0,ES,1559254094,48,38.23,-2.07,58.4,6.13
171,zinder,92,NE,1559254095,37,13.81,8.99,91.34,8.48
172,san quintin,91,PH,1559254095,77,17.54,120.52,78.38,2.21
173,honiara,20,SB,1559254095,70,-9.43,159.96,84.2,4.7
174,ribeira grande,86,PT,1559254095,93,38.52,-28.7,66.86,11.48
175,waingapu,91,ID,1559254096,81,-9.65,120.26,72.98,11.3
176,belmonte,0,PT,1559254096,41,40.36,-7.35,66.99,1.01
177,yekaterinoslavka,64,RU,1559254096,67,54.34,72.46,54.08,10.49
178,san rafael,0,AR,1559254097,55,-34.61,-68.33,53.0,1.74
179,ponta do sol,50,BR,1559254097,84,-20.63,-46.0,69.2,3.04
180,fortuna,0,ES,1559254098,68,38.18,-1.13,66.2,6.91
181,turayf,0,SA,1559254098,18,31.68,38.65,82.4,11.41
182,iberia,63,PE,1559254098,52,-11.41,-69.49,89.54,3.04
183,caraballeda,75,VE,1559254098,65,10.61,-66.85,82.4,3.36
184,general cepeda,75,MX,1559254098,49,25.38,-101.48,73.4,11.41
185,grand baie,40,MU,1559254099,77,-20.02,57.58,68.0,6.93
186,kaeo,71,NZ,1559254099,93,-35.1,173.78,57.99,8.99
187,mola di bari,40,IT,1559254099,93,41.06,17.09,64.99,4.7
188,hasaki,75,JP,1559254099,77,35.73,140.83,68.0,8.05
189,belawan,100,ID,1559254100,99,-0.59,114.46,69.2,0.65
190,yongchang,100,CN,1559254100,56,38.06,102.59,54.98,14.65
191,jagdalpur,100,IN,1559254100,60,19.09,82.02,83.06,7.11
192,portland,75,US,1559253708,56,45.52,-122.67,77.0,9.17
193,severo-kurilsk,100,RU,1559254100,93,50.68,156.12,39.5,38.36
194,uppsala,100,SE,1559253947,93,59.86,17.64,54.0,14.99
195,cherskiy,70,RU,1559254101,48,68.75,161.3,54.08,5.28
196,anadyr,0,RU,1559254101,75,64.73,177.51,42.8,13.42
197,traverse city,75,US,1559254099,42,44.76,-85.62,71.6,4.7
198,petropavl,44,KZ,1559254101,65,54.87,69.13,55.16,8.72
199,allonnes,0,FR,1559254103,87,47.97,0.16,60.01,4.59
200,khash,4,IR,1559254104,32,28.22,61.21,71.18,5.91
201,chone,65,EC,1559254104,86,-0.7,-80.09,75.86,14.2
202,ketchikan,1,US,1559254104,43,55.34,-131.65,69.8,16.11
203,porangatu,86,BR,1559254104,61,-13.44,-49.14,76.04,3.51
204,yerbogachen,100,RU,1559254105,47,61.28,108.01,44.9,7.99
205,flinders,0,AU,1559254105,70,-34.58,150.85,53.01,12.75
206,darlawn,0,IN,1559254105,96,24.02,92.93,72.8,1.3
207,elban,100,RU,1559254105,91,50.1,136.51,45.98,6.6
208,fairbanks,40,US,1559254105,28,64.84,-147.72,73.0,5.82
209,rundu,0,NA,1559254106,32,-17.91,19.77,66.2,3.36
210,vila velha,40,BR,1559254106,78,-3.71,-38.6,81.0,8.05
211,port elizabeth,90,US,1559254106,94,39.31,-74.98,73.99,5.82
212,thompson,90,CA,1559253891,74,55.74,-97.86,37.4,4.7
213,coquimbo,0,CL,1559254106,77,-29.95,-71.34,60.8,11.41
214,mahebourg,40,MU,1559254107,77,-20.41,57.7,68.0,6.93
215,moerai,94,PF,1559254107,78,-22.43,-151.33,74.42,15.95
216,bure,82,NG,1559254108,54,10.52,10.33,81.08,2.82
217,vao,100,EE,1559254108,53,59.1,26.19,48.14,8.14
218,lakes entrance,100,AU,1559254108,87,-37.88,147.99,55.0,1.99
219,dingle,40,PH,1559254108,87,11.0,122.67,77.48,5.59
220,maxixe,0,MZ,1559254108,91,-23.86,35.35,61.64,6.11
221,baykit,99,RU,1559254109,95,61.68,96.39,51.02,4.7
222,namibe,0,AO,1559254109,80,-15.19,12.15,68.48,14.16
223,kijang,100,KR,1559254109,72,35.24,129.21,60.8,8.05
224,elbistan,87,TR,1559254109,47,38.2,37.19,65.96,3.38
225,waunakee,1,US,1559253991,47,43.19,-89.46,79.0,3.49
226,peleduy,7,RU,1559254110,63,59.63,112.75,38.06,2.62
227,hervey bay,4,AU,1559254110,41,-25.3,152.85,55.0,5.82
228,butembo,36,CD,1559254110,97,0.12,29.29,62.9,3.24
229,cidreira,100,BR,1559254110,85,-30.17,-50.22,63.08,17.58
230,esperance,20,TT,1559254110,52,10.24,-61.45,88.0,11.41
231,eureka,75,US,1559253860,82,40.8,-124.16,61.0,9.17
232,hofn,20,IS,1559254111,71,64.25,-15.21,32.12,4.72
233,lata,0,IN,1559254111,46,30.78,78.62,33.02,11.92
234,abancay,39,PE,1559254111,23,-13.64,-72.88,66.86,7.38
235,hjelset,90,NO,1559254112,93,62.78,7.5,42.01,11.41
236,port hawkesbury,90,CA,1559254112,75,45.62,-61.36,54.0,11.41
237,provideniya,0,RU,1559254112,56,64.42,-173.23,44.6,4.47
238,tuatapere,59,NZ,1559254112,98,-46.13,167.69,41.0,10.98
239,cortez,1,US,1559254113,26,37.35,-108.58,70.0,9.17
240,fushe-arrez,0,AL,1559254113,92,42.06,20.02,47.06,1.34
241,oranjestad,20,AW,1559254113,70,12.52,-70.03,86.0,18.34
242,victor harbor,75,AU,1559253820,93,-35.55,138.62,53.01,4.7
243,hambantota,40,LK,1559254113,100,6.12,81.12,78.8,6.93
244,rome,20,IT,1559254114,87,41.89,12.48,62.01,1.12
245,xining,97,CN,1559254114,71,36.62,101.77,43.28,2.82
246,galle,40,US,1559254114,62,29.74,-97.91,91.0,6.93
247,zabol,0,IR,1559254114,42,31.03,61.49,80.6,24.16
248,kencong,49,ID,1559254114,91,-7.78,112.24,71.72,6.4
249,ca mau,100,VN,1559254117,86,9.18,105.15,80.36,2.42
250,poronaysk,45,RU,1559254117,74,49.22,143.1,51.56,9.82
251,trincomalee,100,LK,1559254117,77,8.58,81.23,79.82,8.25
252,aksarka,77,RU,1559254117,83,66.56,67.8,31.76,5.06
253,lucapa,100,AO,1559254118,39,-8.42,20.74,79.82,2.24
254,kozulka,90,UA,1559254118,93,50.04,23.8,57.2,2.24
255,college,40,US,1559254118,28,64.86,-147.8,73.0,5.82
256,lamar,1,US,1559254118,25,38.09,-102.62,75.99,5.82
257,lasa,0,CY,1559254119,49,34.92,32.53,80.6,4.7
258,palmer,75,AU,1559254119,93,-34.85,139.16,53.01,4.7
259,ugra,46,RU,1559254119,94,54.78,34.32,57.32,5.55
260,faya,0,SA,1559254119,55,18.39,42.45,69.8,3.6
261,chuy,100,UY,1559254120,68,-33.69,-53.46,57.32,10.87
262,vila franca do campo,20,PT,1559253883,93,37.72,-25.43,66.2,5.82
263,leh,4,IN,1559254120,30,34.16,77.58,26.54,4.94
264,tual,47,ID,1559254120,81,-5.67,132.75,81.98,18.79
265,salalah,20,OM,1559254120,79,17.01,54.1,86.0,5.82
266,comodoro rivadavia,0,AR,1559254121,75,-45.87,-67.48,44.6,4.7
267,ponta delgada,20,PT,1559254121,93,37.73,-25.67,66.2,5.82
268,narsaq,0,GL,1559254121,15,60.91,-46.05,59.0,13.87
269,viedma,99,AR,1559254121,64,-40.81,-62.99,48.68,7.72
270,puerto escondido,90,MX,1559254122,70,15.86,-97.07,86.0,9.17
271,petropavlovsk-kamchatskiy,75,RU,1559253823,75,53.05,158.65,44.6,4.47
272,ryde,20,GB,1559254122,87,50.73,-1.16,60.8,3.36
273,kishanganj,50,IN,1559254122,80,26.1,87.95,77.3,15.61
274,dudinka,40,RU,1559254122,96,69.41,86.18,32.0,15.66
275,haines junction,56,CA,1559254123,26,60.75,-137.51,59.12,8.08
276,akdepe,0,TM,1559254123,68,42.05,59.39,69.8,4.7
277,kangaatsiaq,0,GL,1559254123,79,68.31,-53.46,35.9,12.86
278,san andres,62,PH,1559254124,86,13.32,122.68,79.82,2.95
279,sisophon,100,KH,1559254124,95,13.59,102.97,75.5,2.01
280,spornoye,0,RU,1559254124,56,50.84,37.29,73.4,4.47
281,lashio,1,MM,1559254124,83,22.93,97.75,69.74,0.92
282,bereznyky,97,UA,1559254125,88,50.86,27.48,60.2,3.89
283,caravelas,0,BR,1559254125,82,-17.73,-39.27,76.94,4.27
284,nome,1,US,1559254125,66,30.04,-94.42,88.0,6.93
285,broome,23,GB,1559254125,72,52.47,1.45,66.99,13.87
286,camacha,40,PT,1559254125,100,33.08,-16.33,71.01,17.22
287,jasper,48,US,1559254126,49,33.83,-87.28,91.0,6.69
288,guanica,1,PR,1559253966,69,17.97,-66.91,81.0,3.36
289,lagoa,0,PT,1559254126,53,37.14,-8.45,72.0,9.17
290,port blair,100,IN,1559254127,71,11.67,92.75,84.86,8.12
291,timra,100,SE,1559254127,81,62.49,17.33,48.2,18.34
292,praia da vitoria,20,PT,1559254127,88,38.73,-27.07,69.8,9.42
293,safford,1,US,1559254127,7,32.83,-109.71,87.8,3.36
294,mecca,0,SA,1559253914,28,21.43,39.83,94.94,3.89
295,tezu,0,IN,1559254128,49,27.93,96.16,71.9,4.34
296,bonthe,100,SL,1559254128,85,7.53,-12.5,80.36,9.04
297,kruisfontein,100,ZA,1559254128,81,-34.0,24.73,58.76,3.85
298,dicabisagan,78,PH,1559254128,85,17.08,122.42,75.68,2.89
299,svobodnyy,100,RU,1559254130,81,53.85,40.53,67.58,5.19
300,itarema,100,BR,1559254131,93,-2.92,-39.92,76.76,8.59
301,longyearbyen,75,NO,1559254131,69,78.22,15.63,33.8,28.86
302,leningradskiy,86,RU,1559254131,98,69.38,178.42,32.66,2.89
303,mahibadhoo,100,MV,1559254131,78,3.78,72.97,83.78,10.76
304,kinshasa,99,CD,1559254132,83,-4.32,15.31,78.8,4.7
305,vardo,1,US,1559254132,88,39.62,-77.74,79.0,5.82
306,ifanadiana,0,MG,1559254132,92,-21.3,47.64,60.56,5.3
307,kifri,0,IQ,1559254132,9,34.69,44.96,92.6,14.18
308,bujaru,75,BR,1559254132,88,-1.52,-48.04,77.0,3.36
309,necocli,75,CO,1559254133,74,8.42,-76.79,84.2,4.7
310,araouane,0,ML,1559254133,11,18.9,-3.53,100.34,7.78
311,anna paulowna,90,NL,1559253926,87,52.86,4.83,64.99,12.75
312,nouadhibou,0,MR,1559254133,82,20.93,-17.03,66.2,17.22
313,kribi,100,CM,1559254134,84,2.94,9.91,80.36,12.06
314,kon tum,100,VN,1559254134,99,14.36,108.0,70.46,1.12
315,amalapuram,94,IN,1559254134,86,16.58,82.0,85.04,8.39
316,tuktoyaktuk,20,CA,1559254134,48,69.44,-133.03,42.8,16.11
317,nuuk,20,GL,1559254134,57,64.17,-51.74,51.8,4.7
318,terrak,100,NO,1559254135,81,65.09,12.37,42.8,5.82
319,igarka,93,RU,1559254135,95,67.47,86.57,31.22,6.24
320,rio brilhante,79,BR,1559254135,65,-21.8,-54.54,79.64,5.73
321,santa cruz del sur,60,CU,1559254135,57,20.71,-78.0,88.28,3.18
322,champerico,90,MX,1559254136,54,16.38,-93.6,84.2,8.5
323,burnie,76,AU,1559254136,72,-41.05,145.91,51.01,1.01
324,calbuco,75,CL,1559254136,87,-41.77,-73.13,53.6,18.34
325,kumluca,100,TR,1559254136,38,36.37,30.29,63.8,5.08
326,half moon bay,90,US,1559254136,87,37.46,-122.43,72.0,8.05
327,kyshtovka,100,RU,1559254137,67,56.56,76.62,50.3,8.37
328,kathmandu,40,NP,1559254137,93,27.71,85.32,62.6,2.24
329,samarai,100,PG,1559254137,90,-10.62,150.67,74.42,5.39
330,broken hill,40,AU,1559254138,86,-31.97,141.45,39.2,9.17
331,port-cartier,90,CA,1559254138,87,50.03,-66.88,44.6,16.11
332,mastic beach,90,US,1559254138,93,40.77,-72.85,64.0,8.05
333,ibra,62,OM,1559254138,30,22.69,58.55,90.44,9.62
334,soe,0,EE,1559254138,61,57.91,26.05,51.01,5.82
335,ahuimanu,40,US,1559254139,45,21.44,-157.84,87.8,18.34
336,bambous virieux,40,MU,1559254139,77,-20.34,57.76,68.0,6.93
337,maragogi,5,BR,1559254139,87,-9.01,-35.22,74.96,4.14
338,qaanaaq,0,GL,1559254139,74,77.48,-69.36,31.4,2.82
339,agadir,75,MA,1559254139,88,30.42,-9.58,64.4,4.7
340,sile,2,US,1559254140,27,35.56,-106.37,71.6,10.29
341,kodinsk,84,RU,1559254140,73,58.6,99.18,54.98,5.3
342,clyde river,20,CA,1559254140,80,70.47,-68.59,35.6,3.36
343,washougal,1,US,1559254140,56,45.58,-122.35,77.0,5.82
344,bandarbeyla,100,SO,1559254140,85,9.49,50.81,76.22,8.63
345,dunmore town,0,BS,1559254141,80,25.5,-76.65,80.54,12.75
346,nokia,0,FI,1559254141,57,61.48,23.51,52.0,12.75
347,anzio,20,IT,1559254141,87,41.45,12.63,62.01,1.12
348,port hedland,0,AU,1559254141,34,-20.31,118.58,66.2,11.41
349,jega,99,NG,1559254144,27,12.22,4.38,100.7,11.59
350,russell,90,AR,1559254144,62,-33.01,-68.8,51.8,4.7
351,touros,20,BR,1559254144,88,-5.2,-35.46,78.8,4.7
352,salvador,40,BR,1559254145,78,-12.98,-38.48,78.8,5.82
353,la ronge,75,CA,1559254145,54,55.1,-105.3,59.0,10.29
354,fortuna foothills,1,US,1559254145,14,32.66,-114.41,95.0,11.41
355,rock springs,1,US,1559254146,29,41.59,-109.2,60.8,3.36
356,taoudenni,0,ML,1559254146,10,22.68,-3.98,101.06,5.53
357,chapleau,20,CA,1559254146,23,47.85,-83.4,60.8,10.29
358,vredendal,50,ZA,1559254147,86,-31.68,18.49,59.48,10.58
359,bathsheba,75,BB,1559254147,88,13.22,-59.52,78.8,21.92
360,zonguldak,0,TR,1559253963,68,41.25,31.83,69.38,6.62
361,karratha,0,AU,1559254147,26,-20.74,116.85,70.46,17.0
362,grindavik,0,IS,1559254148,63,63.84,-22.43,48.2,4.7
363,santa cruz,40,US,1559254150,68,36.97,-122.03,75.99,9.17
364,barentu,100,ER,1559254026,23,15.11,37.59,93.68,3.47
365,lompoc,75,US,1559254151,77,34.64,-120.46,71.01,9.17
366,bushehr,0,IR,1559254151,88,28.97,50.84,82.4,10.18
367,kapit,100,MY,1559254151,93,2.02,112.94,74.6,0.72
368,sebeta,60,ET,1559254151,70,8.91,38.62,61.82,1.9
369,sao filipe,0,CV,1559254151,87,14.9,-24.5,74.6,15.41
370,hatillo,1,PR,1559254113,69,18.49,-66.83,81.0,3.36
371,shingu,100,JP,1559254152,51,33.72,135.99,54.44,3.6
372,wajima,100,JP,1559254152,76,37.4,136.9,66.86,18.45
373,mount isa,0,AU,1559254152,34,-20.73,139.49,51.8,13.87
374,necochea,100,AR,1559254029,41,-38.55,-58.74,46.0,1.01
375,peniche,0,PT,1559254153,28,39.36,-9.38,80.6,12.75
376,port moresby,75,PG,1559254153,94,-9.47,147.16,77.0,6.93
377,at-bashi,81,KG,1559254153,53,41.17,75.81,48.14,1.36
378,yenagoa,100,NG,1559254154,96,4.92,6.26,74.6,5.28
379,margate,75,AU,1559254154,76,-43.03,147.26,51.8,4.7
380,sampit,100,ID,1559254154,99,-2.54,112.95,73.34,2.15
381,dubrovnik,40,HR,1559254154,93,42.65,18.09,59.0,2.24
382,neiafu,20,TO,1559254154,78,-18.65,-173.98,78.8,4.7
383,campbellton,98,CA,1559254155,84,48.0,-66.68,55.88,7.27
384,morros,40,BR,1559254155,88,-2.87,-44.04,80.6,9.17
385,lazaro cardenas,5,MX,1559254155,11,28.39,-105.62,91.99,4.7
386,markova,0,RU,1559254155,75,52.21,104.21,42.8,6.71
387,kaoma,0,ZM,1559254156,50,-14.8,24.8,57.5,4.05
388,havelock,20,US,1559254062,52,34.88,-76.9,93.2,12.75
389,muravlenko,100,RU,1559254156,78,63.79,74.5,35.18,20.62
390,hue,40,VN,1559254156,78,16.47,107.58,80.6,2.24
391,ostrovnoy,3,RU,1559254157,50,68.05,39.51,48.32,15.12
392,port hardy,20,CA,1559254157,72,50.7,-127.42,59.0,5.82
393,geraldton,75,CA,1559254157,32,49.72,-86.95,55.4,9.17
394,airai,48,TL,1559254157,78,-8.93,125.41,73.88,8.5
395,bodden town,75,KY,1559254158,83,19.28,-81.25,82.4,9.17
396,primorsk,31,RU,1559254158,63,60.37,28.62,48.0,10.0
397,colac,75,AU,1559254158,98,-38.34,143.59,53.01,5.99
398,santa rosa,95,AR,1559254111,88,-36.62,-64.29,46.16,9.69
399,acapulco,75,MX,1559254162,70,16.86,-99.88,87.8,9.17
400,umm lajj,100,SA,1559254163,55,25.02,37.27,89.54,6.93
401,angoram,98,PG,1559254163,93,-4.06,144.07,73.88,1.9
402,urusha,24,RU,1559254163,54,54.05,122.9,45.62,6.33
403,torzhok,0,RU,1559254163,77,57.04,34.97,49.04,4.05
404,red bluff,1,US,1559253900,35,40.18,-122.24,86.0,8.05
405,mayumba,100,GA,1559254164,85,-3.44,10.65,77.3,10.71
406,boone,40,US,1559254164,42,36.22,-81.67,91.4,13.44
407,vinh,100,VN,1559254164,83,18.67,105.69,79.64,1.12
408,beloretsk,100,RU,1559254165,95,58.67,52.48,61.1,5.95
409,guerrero negro,4,MX,1559254165,85,27.97,-114.04,62.9,13.78
410,sisimiut,0,GL,1559254165,68,66.94,-53.67,38.24,19.73
411,husavik,39,CA,1559254165,18,50.56,-96.99,82.99,2.46
412,brainerd,1,US,1559253945,36,46.36,-94.2,84.99,10.29
413,pisco,0,PE,1559254166,30,-13.71,-76.2,71.6,8.05
414,ilhabela,83,BR,1559253891,85,-23.78,-45.36,76.4,16.17
415,opuwo,0,NA,1559254166,45,-18.06,13.84,64.88,4.61
416,ovsyanka,93,RU,1559254166,69,53.58,126.91,47.06,6.46
417,sitka,0,US,1559254166,34,37.17,-99.65,77.0,5.99
418,tres palos,75,MX,1559254167,70,16.83,-99.78,87.8,9.17
419,worland,1,US,1559254167,26,44.02,-107.96,75.2,3.36
420,gama,20,BR,1559254167,50,-16.02,-48.07,77.0,2.24
421,jerome,20,US,1559254167,24,34.75,-112.11,81.0,11.41
422,masvingo,0,ZW,1559254168,82,-20.08,30.83,54.08,3.27
423,perehonivka,0,UA,1559254168,88,49.98,30.49,66.2,6.71
424,naze,75,NG,1559254168,94,5.43,7.07,75.2,4.61
425,slantsy,25,RU,1559254168,53,59.12,28.09,48.32,10.36
426,kamyshin,0,RU,1559254169,68,50.08,45.4,67.94,2.55
427,gamba,36,CN,1559254169,46,28.28,88.52,36.08,3.69
428,blagoyevo,23,RU,1559254169,60,63.37,47.92,48.14,7.7
429,moron,100,VE,1559254169,56,10.49,-68.2,88.82,2.01
430,cayenne,75,GF,1559254170,88,4.94,-52.33,78.8,9.17
431,san cristobal,75,EC,1559254170,82,-0.39,-78.55,60.8,5.82
432,hohhot,0,CN,1559254170,38,40.81,111.65,41.0,2.24
433,kirkuk,0,IQ,1559254171,10,35.47,44.4,90.08,13.82
434,maceio,0,BR,1559254171,74,-9.67,-35.74,78.8,4.7
435,kuching,75,MY,1559253918,100,1.56,110.34,75.2,2.24
436,erie,20,US,1559253878,82,42.13,-80.09,66.2,3.36
437,brewster,20,US,1559254171,77,41.76,-70.08,62.01,9.17
438,kieta,42,PG,1559254172,72,-6.22,155.63,83.24,5.82
439,butterworth,75,MY,1559254172,100,5.4,100.37,78.8,3.36
440,kondinskoye,91,RU,1559254172,76,59.65,67.41,53.0,5.48
441,la palma,100,CO,1559253902,94,5.36,-74.39,74.78,4.25
442,abha,0,SA,1559254173,55,18.22,42.5,69.8,9.51
443,luderitz,39,NA,1559254173,82,-26.65,15.16,59.0,5.82
444,sechura,46,PE,1559254174,79,-5.56,-80.82,70.46,14.85
445,mackay,90,CA,1559254174,33,53.65,-115.58,71.6,5.82
446,guaira,38,BR,1559254174,92,-24.09,-54.26,73.16,3.65
447,komsomolskiy,0,RU,1559254174,95,67.55,63.78,20.24,5.1
448,dmitriyevka,50,GE,1559254175,77,43.08,41.0,73.16,4.0
449,skibbereen,75,IE,1559254177,100,51.55,-9.27,55.4,13.87
450,ardee,75,IE,1559254177,82,53.86,-6.54,62.01,9.17
451,nemuro,12,JP,1559254130,73,43.32,145.57,52.28,9.37
452,malanje,8,AO,1559254177,74,-9.54,16.35,67.4,2.57
453,anloga,40,GH,1559254104,83,5.79,0.9,82.4,8.05
454,sinnamary,87,GF,1559254178,79,5.38,-52.96,81.98,15.99
455,shimsk,0,RU,1559254178,61,58.21,30.71,46.34,3.91
456,hendek,0,TR,1559254178,93,40.8,30.75,57.2,1.12
457,shellbrook,90,CA,1559254178,55,53.22,-106.39,60.8,13.87
458,salina,1,US,1559254179,41,36.29,-95.15,81.0,11.41
459,lubango,0,AO,1559254179,63,-14.92,13.49,64.52,3.22
460,durant,1,US,1559253968,57,33.99,-96.37,84.0,3.36
461,san policarpo,91,PH,1559254179,75,12.18,125.51,84.14,4.29
462,kuytun,1,RU,1559254180,63,54.34,101.51,51.92,6.26
463,san patricio,100,PY,1559254180,99,-26.98,-56.83,64.7,3.04
464,darovskoy,64,RU,1559254180,98,58.77,47.96,59.84,6.62
465,te anau,97,NZ,1559254180,95,-45.41,167.72,33.92,1.92
466,angoche,71,MZ,1559254181,77,-16.23,39.91,71.9,7.45
467,teya,40,MX,1559254181,44,21.05,-89.07,98.6,9.17
468,srednekolymsk,89,RU,1559254181,48,67.46,153.71,63.26,5.48
469,pirajui,20,BR,1559254181,58,-22.0,-49.46,84.2,5.82
470,iqaluit,20,CA,1559254182,86,63.75,-68.52,39.2,6.93
471,vila,0,IT,1559254182,63,45.18,8.4,64.99,3.36
472,tono,100,JP,1559254182,72,39.35,141.52,52.28,2.01
473,nichinan,75,JP,1559254182,68,31.65,131.31,69.01,3.36
474,yegorlykskaya,0,RU,1559254183,56,46.56,40.65,69.74,9.26
475,grand gaube,40,MU,1559254183,77,-20.01,57.66,68.0,6.93
476,tocopilla,0,CL,1559254183,84,-22.09,-70.2,64.16,18.39
477,pueblo,20,US,1559253979,32,38.25,-104.61,73.99,9.17
478,tyulyachi,0,RU,1559254183,60,55.89,50.23,68.0,6.71
479,alofi,40,NU,1559254184,78,-19.06,-169.92,78.8,9.17
480,pacific grove,1,US,1559254184,49,36.62,-121.92,75.99,14.99
481,pochutla,90,MX,1559254184,88,15.74,-96.47,86.0,23.04
482,martyush,81,RU,1559254184,81,56.4,61.89,62.9,9.66
483,ayame,100,CI,1559254185,90,5.61,-3.16,76.22,3.56
484,tuljapur,43,IN,1559254185,26,18.01,76.07,94.4,16.35
485,terra santa,95,BR,1559254185,75,-2.1,-56.49,84.68,2.98
486,whittlesea,90,AU,1559254185,100,-37.51,145.12,55.0,11.41
487,talnakh,40,RU,1559254186,91,69.49,88.39,32.0,15.66
488,semey,0,KZ,1559254186,55,50.41,80.25,57.5,8.63
489,mitu,0,IR,1559254186,37,36.2,46.09,56.06,4.18
490,tarko-sale,70,RU,1559254186,84,64.92,77.78,34.0,5.99
491,kaitangata,88,NZ,1559254186,91,-46.28,169.85,39.99,1.99
492,vestmannaeyjar,1,IS,1559254187,60,63.44,-20.27,46.7,9.15
493,roma,20,IT,1559254027,87,41.89,12.48,62.01,1.12
494,tibiri,100,NE,1559254187,33,13.59,7.06,95.3,10.69
495,muros,0,ES,1559254188,46,42.77,-9.06,73.4,5.82
496,jieshi,7,CN,1559254188,86,22.82,115.83,74.24,2.51
497,mozarlandia,23,BR,1559254188,52,-14.74,-50.57,82.16,4.07
498,zima,0,RU,1559254188,60,53.93,102.05,53.0,7.2
499,erzin,0,TR,1559254190,69,36.95,36.2,81.0,4.7
500,alekseyevsk,100,RU,1559254191,89,57.84,108.35,45.8,3.94
501,bollnas,100,SE,1559254191,94,61.35,16.39,43.0,3.0
502,waynesville,1,US,1559254191,43,37.83,-92.2,75.99,9.17
503,derzhavinsk,40,KZ,1559254191,48,51.1,66.31,62.36,7.31
504,sharjah,0,AE,1559254192,32,25.36,55.39,93.2,2.24
505,tottori,75,JP,1559254192,53,35.5,134.23,71.6,4.7
506,high level,1,CA,1559254192,46,58.52,-117.13,53.6,10.29
507,waipawa,100,NZ,1559254192,77,-39.94,176.59,54.0,7.0
508,norrtalje,75,SE,1559254193,81,59.76,18.7,54.0,18.34
509,mezen,0,RU,1559254193,57,65.85,44.24,44.72,8.1
510,ambovombe,66,MG,1559254193,72,-25.18,46.09,73.52,10.89
511,quatre cocos,40,MU,1559254193,77,-20.21,57.76,68.0,6.93
512,taree,0,AU,1559254194,69,-31.91,152.46,41.0,6.93
513,hecun,97,CN,1559254194,98,29.94,119.31,61.64,2.1
514,buala,100,SB,1559254194,80,-8.15,159.59,81.98,15.68
515,hulan,0,IR,1559254194,33,34.23,47.18,62.6,6.67
516,ruteng,92,ID,1559254194,78,-8.61,120.46,72.98,4.47
517,mao,40,DO,1559254095,66,19.55,-71.08,84.2,13.87
518,roald,90,NO,1559254195,86,62.58,6.12,42.01,12.75
519,hochst,90,AT,1559254195,71,47.46,9.64,55.99,5.82
520,lucea,20,JM,1559254195,78,18.44,-78.17,84.0,4.7
521,hinatuan,86,PH,1559254195,96,8.37,126.34,73.34,0.81
522,klaksvik,63,FO,1559254196,80,62.23,-6.59,39.2,13.87
523,pilar,75,AR,1559254196,82,-34.46,-58.91,55.4,12.75
524,nauta,86,PE,1559254196,50,-4.51,-73.58,91.16,1.36
525,buritizeiro,1,BR,1559254196,60,-17.37,-44.96,74.6,0.92
526,kaabong,46,UG,1559254196,76,3.51,34.14,65.6,2.46
527,homer,90,US,1559254197,54,59.64,-151.54,55.4,13.87
528,huittinen,0,FI,1559254197,73,61.18,22.7,50.0,12.75
529,juba,0,EE,1559254197,61,57.82,26.93,51.01,5.82
530,mudon,100,MM,1559254197,86,16.26,97.73,79.46,6.35
531,luba,91,PH,1559254198,77,17.32,120.7,78.38,2.21
532,barnala,0,IN,1559254198,10,30.38,75.54,96.56,2.91
533,lujan,59,AR,1559254198,55,-46.57,-67.67,40.58,8.37
534,hokitika,97,NZ,1559254199,76,-42.72,170.96,48.5,10.04
535,ramhormoz,0,IR,1559254199,11,31.28,49.6,90.62,3.31
536,saint-gaudens,0,FR,1559254199,77,43.11,0.72,62.01,4.7
537,banjar,95,ID,1559254199,97,-7.37,108.54,72.44,1.43
538,cacheu,0,GW,1559254200,74,12.27,-16.16,80.6,6.93
539,maharajganj,0,IN,1559254200,62,26.11,84.5,87.56,16.71
540,cockburn town,1,TC,1559254173,79,21.46,-71.14,80.9,16.37
541,liverpool,40,GB,1559253933,82,53.41,-2.98,61.0,12.75
542,kant,0,KG,1559254201,48,42.89,74.85,64.4,11.18
543,tessalit,0,ML,1559254201,8,20.2,1.01,95.3,10.33
544,sohag,0,EG,1559254201,15,26.55,31.7,94.94,14.92
545,caetite,3,BR,1559254201,71,-14.07,-42.48,70.82,5.97
546,zhigalovo,8,RU,1559254202,92,54.81,105.15,44.0,1.95
547,trairi,100,BR,1559254202,96,-3.28,-39.27,74.42,5.57
548,kirillov,0,RU,1559254202,54,59.86,38.38,45.44,1.52
549,mbala,16,ZM,1559254205,81,-8.85,31.37,60.56,7.05
550,sawtell,0,AU,1559254205,86,-30.38,153.1,41.0,4.7
551,gizo,0,IL,1559254206,73,31.8,34.94,84.0,4.7
552,kushiro,75,JP,1559254206,82,43.11,144.15,55.4,4.7
553,mount gambier,90,AU,1559254206,100,-37.83,140.78,51.8,6.93
554,rawson,98,AR,1559254206,63,-43.3,-65.11,46.16,16.08
555,ippy,59,CF,1559254207,67,6.26,21.2,77.12,2.04
556,panama city,40,US,1559253992,74,30.16,-85.65,89.6,6.93
557,padina,0,BG,1559254207,72,41.52,25.07,66.2,5.82
558,apam,99,GH,1559254207,93,5.28,-0.74,75.68,4.25
559,valparaiso,1,US,1559254067,57,41.47,-87.06,82.0,5.82
560,bad munstereifel,75,DE,1559254208,77,50.55,6.77,64.0,6.93
561,thinadhoo,100,MV,1559254208,81,0.53,72.93,81.26,13.89
562,inhambane,0,MZ,1559254209,91,-23.87,35.38,61.64,6.11
563,morondava,0,MG,1559254209,73,-20.3,44.28,76.76,13.4
564,rio grande,90,BR,1559254177,87,-32.03,-52.1,57.2,8.05
565,bereda,0,ES,1559254209,68,43.27,-7.54,68.0,3.56
566,pangody,100,RU,1559254209,97,65.85,74.49,33.56,18.21
567,marfino,75,RU,1559254210,87,56.07,37.56,64.0,6.71
568,kavieng,47,PG,1559254210,77,-2.57,150.8,84.5,11.63
569,pringsewu,100,ID,1559254210,93,-5.36,104.98,72.8,2.91
570,zlitan,0,LY,1559254148,80,32.47,14.57,68.12,11.56
